[
  {
    "parkName": "오거리 주차장",
    "parkSpace": "198면",
    "parkOpenhour": "24시간(연중무휴)",
    "parkTopfee": "6,000원",
    "parkfee": "기본(30):600, 추가(15):300",
    "parkAddress": "전주시 완산구 팔달로 217-21",
    "parkPhone": "239-2768",
    "parkNote": "유료주차장",
    "parkLat": 35.8212653,
    "parkLng": 127.1452081
  },
  {
    "parkName": "건산천1 주차장",
    "parkSpace": "78면",
    "parkOpenhour": "24시간(연중무휴)",
    "parkTopfee": "4,000원",
    "parkfee": "기본(30):500, 추가(15):250",
    "parkAddress": "전주시 덕진구 숲정이 5길 7",
    "parkPhone": "239-2768",
    "parkNote": "유료주차장",
    "parkLat": 35.8318605,
    "parkLng": 127.1348123
  },
  {
    "parkName": "건산천2 주차장",
    "parkSpace": "68면",
    "parkOpenhour": "24시간(연중무휴)",
    "parkTopfee": "4,000원",
    "parkfee": "기본(30):500, 추가(15):250",
    "parkAddress": "전주시 덕진구 태진로 125-22",
    "parkPhone": "239-2768",
    "parkNote": "유료주차장",
    "parkLat": 35.8328661,
    "parkLng": 127.1347648
  },
  {
    "parkName": "덕진광장 주차장",
    "parkSpace": "33면",
    "parkOpenhour": "24시간(연중무휴)",
    "parkTopfee": "6,000원",
    "parkfee": "기본(30):600, 추가(15):300",
    "parkAddress": "전주시 덕진구 덕진광장로 3",
    "parkPhone": "239-2768",
    "parkNote": "유료주차장",
    "parkLat": 35.844182,
    "parkLng": 127.1241943
  },
  {
    "parkName": "삼천2동 주차장",
    "parkSpace": "194면",
    "parkOpenhour": "24시간(연중무휴)",
    "parkTopfee": "4,000원",
    "parkfee": "최초1시간 무료주차/ 이후 기본(30):500, 추가(15):250",
    "parkAddress": "전주시 완산구 상거마 4길 24",
    "parkPhone": "239-2768",
    "parkNote": "유료주차장",
    "parkLat": 35.7966589,
    "parkLng": 127.1217302
  },
  {
    "parkName": "중화산2동 주차장",
    "parkSpace": "89면",
    "parkOpenhour": "24시간(연중무휴)",
    "parkTopfee": "4,000원",
    "parkfee": "최초1시간 무료주차/ 이후 기본(30):500, 추가(15):250",
    "parkAddress": "전주시 완산구 신촌3길 28-4",
    "parkPhone": "239-2768",
    "parkNote": "유료주차장",
    "parkLat": 35.817318,
    "parkLng": 127.1152471
  },
  {
    "parkName": "서신동 주차장",
    "parkSpace": "131면",
    "parkOpenhour": "24시간(연중무휴)",
    "parkTopfee": "4,000원",
    "parkfee": "최초1시간 무료주차/ 이후 기본(30):500, 추가(15):250",
    "parkAddress": "전주시 완산구 당산로 56",
    "parkPhone": "239-2768",
    "parkNote": "유료주차장",
    "parkLat": 35.8316316,
    "parkLng": 127.1150008
  },
  {
    "parkName": "종합경기장 주차장",
    "parkSpace": "638면",
    "parkOpenhour": "07:00~23:00",
    "parkTopfee": "4,000원",
    "parkfee": "기본(30):500, 추가(15):250",
    "parkAddress": "전주시 덕진구 기린대로 451",
    "parkPhone": "239-2768",
    "parkNote": "유료주차장",
    "parkLat": 35.8382206,
    "parkLng": 127.125162
  },
  {
    "parkName": "실내체육관 주차장",
    "parkSpace": "150면",
    "parkOpenhour": "07:00~23:00",
    "parkTopfee": "4,000원",
    "parkfee": "기본(30):500, 추가(15):250",
    "parkAddress": "전주시 덕진구 권삼득로 308",
    "parkPhone": "239-2768",
    "parkNote": "유료주차장",
    "parkLat": 35.844182,
    "parkLng": 127.1292776
  },
  {
    "parkName": "한옥마을 제1 주차장",
    "parkSpace": "301면",
    "parkOpenhour": "24시간(연중무휴)",
    "parkTopfee": "12,000원",
    "parkfee": "기본(30):1,000, 추가(15):500",
    "parkAddress": "전주시 완산구 기린대로 99",
    "parkPhone": "239-2768",
    "parkNote": "유료주차장",
    "parkLat": 35.81859,
    "parkLng": 127.153967
  },
  {
    "parkName": "한옥마을 제2 주차장",
    "parkSpace": "175면",
    "parkOpenhour": "24시간(연중무휴)",
    "parkTopfee": "12,000원",
    "parkfee": "기본(30):1,000, 추가(15):500",
    "parkAddress": "전주시 완산구 어진길 30-10",
    "parkPhone": "239-2768",
    "parkNote": "유료주차장",
    "parkLat": 35.8183037,
    "parkLng": 127.1528689
  },
  {
    "parkName": "한옥마을 노상주차장",
    "parkSpace": "245면",
    "parkOpenhour": "하절기 10:00~19:00,동절기 09:00~18:00",
    "parkTopfee": "12,000원",
    "parkfee": "기본(30):1,000, 추가(15):500",
    "parkAddress": "전주시 기린대로, 전주천서로",
    "parkPhone": "239-2768",
    "parkNote": "유료주차장",
    "parkLat": 35.8157515,
    "parkLng": 127.1535544
  },
  {
    "parkName": "동물원 주차장",
    "parkSpace": "840면",
    "parkOpenhour": "09:00~18:00(연중무휴)",
    "parkTopfee": "1,000원",
    "parkfee": "▶선불 1,000원(시간제한없음)▶25인승 이상 - 선불 2,000원(시간제한없음)",
    "parkAddress": "전주시 덕진구 소리로 68",
    "parkPhone": "239-2768",
    "parkNote": "유료주차장",
    "parkLat": 35.8561158,
    "parkLng": 127.1446737
  },
  {
    "parkName": "서부신시가지(도청)",
    "parkSpace": "46면",
    "parkOpenhour": "24시간(연중무휴)",
    "parkTopfee": "6,000원",
    "parkfee": "기본(30):600, 추가(15):300",
    "parkAddress": "전주시 완산구 홍산북로 75",
    "parkPhone": "239-2768",
    "parkNote": "유료주차장",
    "parkLat": 35.8175934,
    "parkLng": 127.1101946
  },
  {
    "parkName": "서부신시가지(농협)",
    "parkSpace": "51면",
    "parkOpenhour": "24시간(연중무휴)",
    "parkTopfee": "6,000원",
    "parkfee": "기본(30):600, 추가(15):300",
    "parkAddress": "전주시 완산구 홍산북로 53",
    "parkPhone": "239-2768",
    "parkNote": "유료주차장",
    "parkLat": 35.8175957,
    "parkLng": 127.1078265
  },
  {
    "parkName": "서부신시가지(다은)",
    "parkSpace": "50면",
    "parkOpenhour": "24시간(연중무휴)",
    "parkTopfee": "6,000원",
    "parkfee": "기본(30):600, 추가(15):300",
    "parkAddress": "전주시 완산구 홍산2길 5-12",
    "parkPhone": "239-2768",
    "parkNote": "유료주차장",
    "parkLat": 35.8151355,
    "parkLng": 127.11019
  },
  {
    "parkName": "서부신시가지(국민)",
    "parkSpace": "67면",
    "parkOpenhour": "24시간(연중무휴)",
    "parkTopfee": "6,000원",
    "parkfee": "기본(30):600, 추가(15):300",
    "parkAddress": "전주시 완산구 홍산1길 4-13",
    "parkPhone": "239-2768",
    "parkNote": "유료주차장",
    "parkLat": 35.8151342,
    "parkLng": 127.1078241
  },
  {
    "parkName": "서부신시가지(홍산)",
    "parkSpace": "122면",
    "parkOpenhour": "24시간(연중무휴)",
    "parkTopfee": "6,000원",
    "parkfee": "기본(30):600, 추가(15):300",
    "parkAddress": "전주시 완산구 홍산남로 45-20",
    "parkPhone": "239-2768",
    "parkNote": "유료주차장",
    "parkLat": 35.8160179,
    "parkLng": 127.1070297
  },
  {
    "parkName": "서부신시가지(비보이)",
    "parkSpace": "124면",
    "parkOpenhour": "24시간(연중무휴)",
    "parkTopfee": "6,000원",
    "parkfee": "기본(30):600, 추가(15):300",
    "parkAddress": "전주시 완산구 홍산남로 83-17",
    "parkPhone": "239-2768",
    "parkNote": "유료주차장",
    "parkLat": 35.8163828,
    "parkLng": 127.1108997
  },
  {
    "parkName": "노송천 주차장",
    "parkSpace": "68면",
    "parkOpenhour": "24시간(연중무휴)",
    "parkTopfee": "6,000원",
    "parkfee": "기본(30):600, 추가(15):300",
    "parkAddress": "전주시 노송여울2길 108",
    "parkPhone": "239-2768",
    "parkNote": "유료주차장",
    "parkLat": 35.8268881,
    "parkLng": 127.142371
  },
  {
    "parkName": "모악산",
    "parkSpace": "180면",
    "parkOpenhour": "24시간",
    "parkTopfee": "무료",
    "parkfee": "무료",
    "parkAddress": "전주시 완산구 중인1길 254",
    "parkPhone": "",
    "parkNote": "무료주차장",
    "parkLat": 35.7578572,
    "parkLng": 127.0867299
  },
  {
    "parkName": "가련산",
    "parkSpace": "40면",
    "parkOpenhour": "24시간",
    "parkTopfee": "무료",
    "parkfee": "무료",
    "parkAddress": "전주시 덕진구 기린대로 535",
    "parkPhone": "",
    "parkNote": "무료주차장",
    "parkLat": 35.8454534,
    "parkLng": 127.1203225
  },
  {
    "parkName": "근영여고 앞",
    "parkSpace": "46면",
    "parkOpenhour": "24시간",
    "parkTopfee": "무료",
    "parkfee": "무료",
    "parkAddress": "전주시 완산구 백제대로 270",
    "parkPhone": "",
    "parkNote": "무료주차장",
    "parkLat": 35.8171482,
    "parkLng": 127.1234423
  },
  {
    "parkName": "이중본뒤",
    "parkSpace": "33면",
    "parkOpenhour": "24시간",
    "parkTopfee": "무료",
    "parkfee": "무료",
    "parkAddress": "전주시 완산구 산월1길 10",
    "parkPhone": "",
    "parkNote": "무료주차장",
    "parkLat": 35.812864,
    "parkLng": 127.1220531
  },
  {
    "parkName": "신일강변 APT 옆",
    "parkSpace": "48면",
    "parkOpenhour": "24시간",
    "parkTopfee": "무료",
    "parkfee": "무료",
    "parkAddress": "전주시 완산구 강변로 98",
    "parkPhone": "",
    "parkNote": "무료주차장",
    "parkLat": 35.7997484,
    "parkLng": 127.1126208
  },
  {
    "parkName": "아중지구 롯데APT 옆",
    "parkSpace": "70면",
    "parkOpenhour": "24시간",
    "parkTopfee": "무료",
    "parkfee": "무료",
    "parkAddress": "전주시 덕진구 정언신로151",
    "parkPhone": "",
    "parkNote": "무료주차장",
    "parkLat": 35.8315595,
    "parkLng": 127.1706162
  },
  {
    "parkName": "아중지구 부영APT 옆",
    "parkSpace": "88면",
    "parkOpenhour": "24시간",
    "parkTopfee": "무료",
    "parkfee": "무료",
    "parkAddress": "전주시 덕진구 인교6길 13",
    "parkPhone": "",
    "parkNote": "무료주차장",
    "parkLat": 35.8254451,
    "parkLng": 127.1716582
  },
  {
    "parkName": "아중지구 밀레니엄 옆",
    "parkSpace": "73면",
    "parkOpenhour": "24시간",
    "parkTopfee": "무료",
    "parkfee": "무료",
    "parkAddress": "전주시 덕진구 정신언로 178",
    "parkPhone": "",
    "parkNote": "무료주차장",
    "parkLat": 35.8293872,
    "parkLng": 127.1343073
  },
  {
    "parkName": "아중지구 산림청옆",
    "parkSpace": "62면",
    "parkOpenhour": "24시간",
    "parkTopfee": "무료",
    "parkfee": "무료",
    "parkAddress": "전주시 덕진구 무삼지2길 7",
    "parkPhone": "",
    "parkNote": "무료주차장",
    "parkLat": 35.8263936,
    "parkLng": 127.1619427
  },
  {
    "parkName": "색장동 만남의 광장",
    "parkSpace": "68면",
    "parkOpenhour": "24시간",
    "parkTopfee": "무료",
    "parkfee": "무료",
    "parkAddress": "전주시 완산구 부남길24",
    "parkPhone": "",
    "parkNote": "무료주차장",
    "parkLat": 35.7884149,
    "parkLng": 127.1934289
  },
  {
    "parkName": "호성동 만남의 광장",
    "parkSpace": "30면",
    "parkOpenhour": "24시간",
    "parkTopfee": "무료",
    "parkfee": "무료",
    "parkAddress": "전주시 덕진구 완주로6",
    "parkPhone": "",
    "parkNote": "무료주차장",
    "parkLat": 35.8674296,
    "parkLng": 127.1475595
  },
  {
    "parkName": "우아1동 공영주차장",
    "parkSpace": "28면",
    "parkOpenhour": "24시간",
    "parkTopfee": "무료",
    "parkfee": "무료",
    "parkAddress": "전주시 덕진구 우아4길6",
    "parkPhone": "",
    "parkNote": "무료주차장",
    "parkLat": 35.8493129,
    "parkLng": 127.1573228
  },
  {
    "parkName": "무진장방면 만남의 광장",
    "parkSpace": "75면",
    "parkOpenhour": "24시간",
    "parkTopfee": "무료",
    "parkfee": "무료",
    "parkAddress": "전주시 덕진구 금상길27",
    "parkPhone": "",
    "parkNote": "무료주차장",
    "parkLat": 35.84209,
    "parkLng": 127.1759196
  },
  {
    "parkName": "군산?익산 만남의 광장",
    "parkSpace": "52면",
    "parkOpenhour": "24시간",
    "parkTopfee": "무료",
    "parkfee": "무료",
    "parkAddress": "전주시 덕진구 번영로 453",
    "parkPhone": "",
    "parkNote": "무료주차장",
    "parkLat": 35.8750522,
    "parkLng": 127.0566808
  },
  {
    "parkName": "인후3동 진버들",
    "parkSpace": "106면",
    "parkOpenhour": "24시간",
    "parkTopfee": "무료",
    "parkfee": "무료",
    "parkAddress": "전주시 덕진구 진버들5길 15",
    "parkPhone": "",
    "parkNote": "무료주차장",
    "parkLat": 35.8361968,
    "parkLng": 127.1647635
  },
  {
    "parkName": "태평동",
    "parkSpace": "24면",
    "parkOpenhour": "24시간",
    "parkTopfee": "무료",
    "parkfee": "무료",
    "parkAddress": "전주시 완산구 태진로 17",
    "parkPhone": "",
    "parkNote": "무료주차장",
    "parkLat": 35.8225845,
    "parkLng": 127.1372204
  },
  {
    "parkName": "인후1동 안골",
    "parkSpace": "32면",
    "parkOpenhour": "24시간",
    "parkTopfee": "무료",
    "parkfee": "무료",
    "parkAddress": "전주시 덕진구 팽나무4길 11",
    "parkPhone": "",
    "parkNote": "무료주차장",
    "parkLat": 35.8355004,
    "parkLng": 127.1546276
  },
  {
    "parkName": "인후2동 금평",
    "parkSpace": "26면",
    "parkOpenhour": "24시간",
    "parkTopfee": "무료",
    "parkfee": "무료",
    "parkAddress": "전주시 덕진구 명주1길 9",
    "parkPhone": "",
    "parkNote": "무료주차장",
    "parkLat": 35.8430137,
    "parkLng": 127.1453213
  },
  {
    "parkName": "인후2동 건지",
    "parkSpace": "26면",
    "parkOpenhour": "24시간",
    "parkTopfee": "무료",
    "parkfee": "무료",
    "parkAddress": "전주시 덕진구 백동로 14-7",
    "parkPhone": "",
    "parkNote": "무료주차장",
    "parkLat": 35.8466072,
    "parkLng": 127.1482396
  },
  {
    "parkName": "남노송동",
    "parkSpace": "24면",
    "parkOpenhour": "24시간",
    "parkTopfee": "무료",
    "parkfee": "무료",
    "parkAddress": "전주시 완산구 관산3길17-6",
    "parkPhone": "",
    "parkNote": "무료주차장",
    "parkLat": 35.8212652,
    "parkLng": 127.1548826
  },
  {
    "parkName": "서부신시가지 봉곡",
    "parkSpace": "30면",
    "parkOpenhour": "24시간",
    "parkTopfee": "무료",
    "parkfee": "무료",
    "parkAddress": "전주시 완산구 봉곡1길 42",
    "parkPhone": "",
    "parkNote": "무료주차장",
    "parkLat": 35.8129312,
    "parkLng": 127.1013777
  },
  {
    "parkName": "서부신시가지 마전",
    "parkSpace": "44면",
    "parkOpenhour": "24시간",
    "parkTopfee": "무료",
    "parkfee": "무료",
    "parkAddress": "전주시 완산구 문학대5길 31-3",
    "parkPhone": "",
    "parkNote": "무료주차장",
    "parkLat": 35.8277272,
    "parkLng": 127.1051532
  },
  {
    "parkName": "서부신시가지 산마을오리정",
    "parkSpace": "34면",
    "parkOpenhour": "24시간",
    "parkTopfee": "무료",
    "parkfee": "무료",
    "parkAddress": "전주시 완산구 마전1길 12-3",
    "parkPhone": "",
    "parkNote": "무료주차장",
    "parkLat": 35.8217318,
    "parkLng": 127.1029784
  },
  {
    "parkName": "서부신시가지 보훈청",
    "parkSpace": "43면",
    "parkOpenhour": "24시간",
    "parkTopfee": "무료",
    "parkfee": "무료",
    "parkAddress": "전주시 완산구 바우배기1길 13-16",
    "parkPhone": "",
    "parkNote": "무료주차장",
    "parkLat": 35.8152139,
    "parkLng": 127.1039934
  },
  {
    "parkName": "서부신시가지 신한은행",
    "parkSpace": "32면",
    "parkOpenhour": "24시간",
    "parkTopfee": "무료",
    "parkfee": "무료",
    "parkAddress": "전주시 완산구 바우배기2길 27",
    "parkPhone": "",
    "parkNote": "무료주차장",
    "parkLat": 35.8167996,
    "parkLng": 127.1038719
  },
  {
    "parkName": "서부신시가지 롯데마트뒤",
    "parkSpace": "42면",
    "parkOpenhour": "24시간",
    "parkTopfee": "무료",
    "parkfee": "무료",
    "parkAddress": "전주시 완산구 홍산북로 13",
    "parkPhone": "",
    "parkNote": "무료주차장",
    "parkLat": 35.8175683,
    "parkLng": 127.1033007
  },
  {
    "parkName": "서부신시가지 도청사거리",
    "parkSpace": "20면",
    "parkOpenhour": "24시간",
    "parkTopfee": "무료",
    "parkfee": "무료",
    "parkAddress": "전주시 완산구 석산2길 7",
    "parkPhone": "",
    "parkNote": "무료주차장",
    "parkLat": 35.8196558,
    "parkLng": 127.1049981
  },
  {
    "parkName": "서부신시가지 엘드@",
    "parkSpace": "24면",
    "parkOpenhour": "24시간",
    "parkTopfee": "무료",
    "parkfee": "무료",
    "parkAddress": "전주시 완산구 범안1길 7-27",
    "parkPhone": "",
    "parkNote": "무료주차장",
    "parkLat": 35.8131413,
    "parkLng": 127.1096324
  },
  {
    "parkName": "서부신시가지 전주대원룸옆",
    "parkSpace": "17면",
    "parkOpenhour": "24시간",
    "parkTopfee": "무료",
    "parkfee": "무료",
    "parkAddress": "전주시 완산구 봉곡2길 17-4",
    "parkPhone": "",
    "parkNote": "무료주차장",
    "parkLat": 35.8129375,
    "parkLng": 127.0950173
  },
  {
    "parkName": "서부신시가지 서곡방면",
    "parkSpace": "28면",
    "parkOpenhour": "24시간",
    "parkTopfee": "무료",
    "parkfee": "무료",
    "parkAddress": "전주시 완산구 황강서원1길 7",
    "parkPhone": "",
    "parkNote": "무료주차장",
    "parkLat": 35.8284577,
    "parkLng": 127.097857
  },
  {
    "parkName": "서부신시가지 예다움원룸",
    "parkSpace": "32면",
    "parkOpenhour": "24시간",
    "parkTopfee": "무료",
    "parkfee": "무료",
    "parkAddress": "전주시 완산구 배학5길 7",
    "parkPhone": "",
    "parkNote": "무료주차장",
    "parkLat": 35.820535,
    "parkLng": 127.0959674
  },
  {
    "parkName": "서부신시가지 전주대신정문",
    "parkSpace": "22면",
    "parkOpenhour": "24시간",
    "parkTopfee": "무료",
    "parkfee": "무료",
    "parkAddress": "전주시 완산구 농소6길 3-5",
    "parkPhone": "",
    "parkNote": "무료주차장",
    "parkLat": 35.8171962,
    "parkLng": 127.0966897
  },
  {
    "parkName": "서부신시가지 KBS옆",
    "parkSpace": "20면",
    "parkOpenhour": "24시간",
    "parkTopfee": "무료",
    "parkfee": "무료",
    "parkAddress": "전주시 완산구 석산1길 12",
    "parkPhone": "",
    "parkNote": "무료주차장",
    "parkLat": 35.8202314,
    "parkLng": 127.1038723
  },
  {
    "parkName": "서부신시가지 전북경찰청옆",
    "parkSpace": "34면",
    "parkOpenhour": "24시간",
    "parkTopfee": "무료",
    "parkfee": "무료",
    "parkAddress": "전주시 완산구 마전3길 12",
    "parkPhone": "",
    "parkNote": "무료주차장",
    "parkLat": 35.8240746,
    "parkLng": 127.1036337
  },
  {
    "parkName": "서부신시가지 여명교회뒤",
    "parkSpace": "32면",
    "parkOpenhour": "24시간",
    "parkTopfee": "무료",
    "parkfee": "무료",
    "parkAddress": "전주시 완산구 척동4길 16-8",
    "parkPhone": "",
    "parkNote": "무료주차장",
    "parkLat": 35.821634,
    "parkLng": 127.1013593
  },
  {
    "parkName": "우아2동 아중택지개발지구",
    "parkSpace": "80면",
    "parkOpenhour": "24시간",
    "parkTopfee": "무료",
    "parkfee": "무료",
    "parkAddress": "전주시 덕진구 산정1길 18",
    "parkPhone": "",
    "parkNote": "무료주차장",
    "parkLat": 35.8375453,
    "parkLng": 127.1684232
  },
  {
    "parkName": "우아1동 홈플러스 뒤",
    "parkSpace": "88면",
    "parkOpenhour": "24시간",
    "parkTopfee": "무료",
    "parkfee": "무료",
    "parkAddress": "전주시 덕진구 우아1길 26",
    "parkPhone": "",
    "parkNote": "무료주차장",
    "parkLat": 35.8480554,
    "parkLng": 127.1543394
  },
  {
    "parkName": "정읍,고창방면 만남의 광장",
    "parkSpace": "84면",
    "parkOpenhour": "24시간",
    "parkTopfee": "무료",
    "parkfee": "무료",
    "parkAddress": "전주시 완산구 쑥고개로 251",
    "parkPhone": "",
    "parkNote": "무료주차장",
    "parkLat": 35.801619,
    "parkLng": 127.0926353
  },
  {
    "parkName": "서신동 서신지구대",
    "parkSpace": "28면",
    "parkOpenhour": "24시간",
    "parkTopfee": "무료",
    "parkfee": "무료",
    "parkAddress": "전주시 완산구 새터로 46",
    "parkPhone": "",
    "parkNote": "무료주차장",
    "parkLat": 35.8353888,
    "parkLng": 127.1114138
  },
  {
    "parkName": "고사동 전주영화제작소",
    "parkSpace": "14면",
    "parkOpenhour": "24시간",
    "parkTopfee": "무료",
    "parkfee": "무료",
    "parkAddress": "전주시 완산구 전주객사3길 22",
    "parkPhone": "",
    "parkNote": "무료주차장",
    "parkLat": 35.8183495,
    "parkLng": 127.1425492
  },
  {
    "parkName": "서서학동 주민자치센터",
    "parkSpace": "17면",
    "parkOpenhour": "24시간",
    "parkTopfee": "무료",
    "parkfee": "무료",
    "parkAddress": "전주시 완산구 팔달로 39-21",
    "parkPhone": "",
    "parkNote": "무료주차장",
    "parkLat": 35.8055718,
    "parkLng": 127.1491615
  },
  {
    "parkName": "하가지구 리드빌딩",
    "parkSpace": "28면",
    "parkOpenhour": "24시간",
    "parkTopfee": "무료",
    "parkfee": "무료",
    "parkAddress": "전주시 덕진구 가련산로 20",
    "parkPhone": "",
    "parkNote": "무료주차장",
    "parkLat": 35.842987,
    "parkLng": 127.1132529
  },
  {
    "parkName": "하가지구 소소빌딩 뒤",
    "parkSpace": "27면",
    "parkOpenhour": "24시간",
    "parkTopfee": "무료",
    "parkfee": "무료",
    "parkAddress": "전주시 덕진구 가리내3길 16-1",
    "parkPhone": "",
    "parkNote": "무료주차장",
    "parkLat": 35.8467698,
    "parkLng": 127.1102515
  },
  {
    "parkName": "송천1동 송천도서관",
    "parkSpace": "34면",
    "parkOpenhour": "24시간",
    "parkTopfee": "무료",
    "parkfee": "무료",
    "parkAddress": "전주시 덕진구 솔내로 212",
    "parkPhone": "",
    "parkNote": "무료주차장",
    "parkLat": 35.8693297,
    "parkLng": 127.12811
  },
  {
    "parkName": "송천2동 주민자치센터",
    "parkSpace": "17면",
    "parkOpenhour": "24시간",
    "parkTopfee": "무료",
    "parkfee": "무료",
    "parkAddress": "전주시 덕진구 두간22길 5",
    "parkPhone": "",
    "parkNote": "무료주차장",
    "parkLat": 35.8293872,
    "parkLng": 127.1343073
  },
  {
    "parkName": "송천2동 용소초교",
    "parkSpace": "17면",
    "parkOpenhour": "24시간",
    "parkTopfee": "무료",
    "parkfee": "무료",
    "parkAddress": "전주시 덕진구 송천3길 30-34",
    "parkPhone": "",
    "parkNote": "무료주차장",
    "parkLat": 35.8613192,
    "parkLng": 127.1180147
  },
  {
    "parkName": "송천2동 공원",
    "parkSpace": "13면",
    "parkOpenhour": "24시간",
    "parkTopfee": "무료",
    "parkfee": "무료",
    "parkAddress": "전주시 덕진구 두간5길 9",
    "parkPhone": "",
    "parkNote": "무료주차장",
    "parkLat": 35.8645207,
    "parkLng": 127.1181486
  },
  {
    "parkName": "하가지구 하가홈마트 뒤",
    "parkSpace": "28면",
    "parkOpenhour": "24시간",
    "parkTopfee": "무료",
    "parkfee": "무료",
    "parkAddress": "전주시 덕진구 가리내8길 19",
    "parkPhone": "",
    "parkNote": "무료주차장",
    "parkLat": 35.8432807,
    "parkLng": 127.1097307
  },
  {
    "parkName": "하가지구 초담불고기 뒤",
    "parkSpace": "29면",
    "parkOpenhour": "24시간",
    "parkTopfee": "무료",
    "parkfee": "무료",
    "parkAddress": "전주시 덕진구 가리내5길 19",
    "parkPhone": "",
    "parkNote": "무료주차장",
    "parkLat": 35.8459365,
    "parkLng": 127.1108176
  },
  {
    "parkName": "하가지구 풍경안경원 옆",
    "parkSpace": "28면",
    "parkOpenhour": "24시간",
    "parkTopfee": "무료",
    "parkfee": "무료",
    "parkAddress": "전주시 덕진구 가리내10길 12-1",
    "parkPhone": "",
    "parkNote": "무료주차장",
    "parkLat": 35.8421883,
    "parkLng": 127.1105753
  },
  {
    "parkName": "하가지구 나그네교회 앞",
    "parkSpace": "29면",
    "parkOpenhour": "24시간",
    "parkTopfee": "무료",
    "parkfee": "무료",
    "parkAddress": "전주시 덕진구 가리내1길 14",
    "parkPhone": "",
    "parkNote": "무료주차장",
    "parkLat": 35.8474484,
    "parkLng": 127.1110159
  },
  {
    "parkName": "인후공원",
    "parkSpace": "64면",
    "parkOpenhour": "24시간",
    "parkTopfee": "무료",
    "parkfee": "무료",
    "parkAddress": "전주시 덕진구 안덕원3길 10",
    "parkPhone": "",
    "parkNote": "무료주차장",
    "parkLat": 35.844051,
    "parkLng": 127.1638886
  },
  {
    "parkName": "서신동 에덴교회",
    "parkSpace": "28면",
    "parkOpenhour": "24시간",
    "parkTopfee": "무료",
    "parkfee": "무료",
    "parkAddress": "전주시 완산구 고사평 1길 3",
    "parkPhone": "",
    "parkNote": "무료주차장",
    "parkLat": 35.8344944,
    "parkLng": 127.1090673
  },
  {
    "parkName": "한옥마을 치명자산성지 옆",
    "parkSpace": "1,000면",
    "parkOpenhour": "24시간",
    "parkTopfee": "무료",
    "parkfee": "무료",
    "parkAddress": "전주시 완산구 바람쐬는길 133",
    "parkPhone": "",
    "parkNote": "무료주차장",
    "parkLat": 35.804977,
    "parkLng": 127.1727738
  },
  {
    "parkName": "송천2동 시영아파트 앞",
    "parkSpace": "170면",
    "parkOpenhour": "24시간",
    "parkTopfee": "무료",
    "parkfee": "무료",
    "parkAddress": "전주시 덕진구 와룡로 97-14",
    "parkPhone": "",
    "parkNote": "무료주차장",
    "parkLat": 35.868243,
    "parkLng": 127.1131245
  },
  {
    "parkName": "남노송동 병무청",
    "parkSpace": "27면",
    "parkOpenhour": "24시간",
    "parkTopfee": "무료",
    "parkfee": "무료",
    "parkAddress": "전주시 완산구 관선3길 8-4",
    "parkPhone": "",
    "parkNote": "무료주차장",
    "parkLat": 35.8203853,
    "parkLng": 127.153575
  },
  {
    "parkName": "인후2동 용수마을",
    "parkSpace": "11면",
    "parkOpenhour": "24시간",
    "parkTopfee": "무료",
    "parkfee": "무료",
    "parkAddress": "전주시 덕진구 거북바우로 124-15",
    "parkPhone": "",
    "parkNote": "무료주차장",
    "parkLat": 35.8415686,
    "parkLng": 127.1495975
  },
  {
    "parkName": "월드컵경기장",
    "parkSpace": "4,181면",
    "parkOpenhour": "24시간",
    "parkTopfee": "무료",
    "parkfee": "무료",
    "parkAddress": "전주시 덕진구 기린대로 1055",
    "parkPhone": "",
    "parkNote": "무료주차장",
    "parkLat": 35.8680573,
    "parkLng": 127.0645192
  },
  {
    "parkName": "화산체육관",
    "parkSpace": "343면",
    "parkOpenhour": "24시간",
    "parkTopfee": "무료",
    "parkfee": "무료",
    "parkAddress": "전주시 완산구 백제로310",
    "parkPhone": "",
    "parkNote": "무료주차장",
    "parkLat": 35.8135554,
    "parkLng": 127.1324745
  },
  {
    "parkName": "완산수영장",
    "parkSpace": "210면",
    "parkOpenhour": "24시간",
    "parkTopfee": "무료",
    "parkfee": "무료",
    "parkAddress": "전주시 완산구 쑥고개로366-7",
    "parkPhone": "",
    "parkNote": "무료주차장",
    "parkLat": 35.80262,
    "parkLng": 127.1060566
  },
  {
    "parkName": "덕진공원",
    "parkSpace": "70면",
    "parkOpenhour": "24시간",
    "parkTopfee": "무료",
    "parkfee": "무료",
    "parkAddress": "전주시 덕진구 권삼득로 390",
    "parkPhone": "",
    "parkNote": "무료주차장",
    "parkLat": 35.8480368,
    "parkLng": 127.1222124
  }
]