[
  {
    "hosName": "나은요양병원",
    "hosPhone": "063-715-2300",
    "hosAddress": "전라북도 전주시 덕진구 기린대로 951 (여의동)",
    "hosSubject": "10010000",
    "hosLat": "35.86442664",
    "hosLng": "127.0806498"
  },
  {
    "hosName": "다사랑병원",
    "hosPhone": "063-228-5540",
    "hosAddress": "전라북도 전주시 완산구 백제대로 74 (삼천동1가)",
    "hosSubject": "10010000",
    "hosLat": "35.80087761",
    "hosLng": "127.1278535"
  },
  {
    "hosName": "대자인병원",
    "hosPhone": "063-240-2000",
    "hosAddress": "전라북도 전주시 덕진구 견훤로 390 (우아동3가)",
    "hosSubject": "11111101",
    "hosLat": "35.84599102",
    "hosLng": "127.1533161"
  },
  {
    "hosName": "더세움병원",
    "hosPhone": "063-243-9100",
    "hosAddress": "전라북도 전주시 덕진구 서가재미2길 7 (인후동1가)",
    "hosSubject": "10000000",
    "hosLat": "35.83212542",
    "hosLng": "127.159232"
  },
  {
    "hosName": "더숲요양병원",
    "hosPhone": "063-230-2000",
    "hosAddress": "전라북도 전주시 완산구 흑석2길 22 (서서학동)",
    "hosSubject": "11010010",
    "hosLat": "35.79599558",
    "hosLng": "127.1500603"
  },
  {
    "hosName": "드림솔병원",
    "hosPhone": "063-250-8000",
    "hosAddress": "전라북도 전주시 완산구 천잠로 507 (효자동3가)",
    "hosSubject": "11010000",
    "hosLat": "35.82979423",
    "hosLng": "127.0946211"
  },
  {
    "hosName": "만인요양병원",
    "hosPhone": "063-273-0075",
    "hosAddress": "전라북도 전주시 덕진구 발단길 5 (송천동2가)",
    "hosSubject": "10010000",
    "hosLat": "35.87124647",
    "hosLng": "127.1156659"
  },
  {
    "hosName": "미르아동병원",
    "hosPhone": "063-229-0114",
    "hosAddress": "전라북도 전주시 완산구 백제대로 100 (효자동1가)",
    "hosSubject": "10000000",
    "hosLat": "35.80263249",
    "hosLng": "127.1259453"
  },
  {
    "hosName": "미르치과병원",
    "hosPhone": "063-224-7700",
    "hosAddress": "전라북도 전주시 완산구 백제대로 218 (중화산동2가)",
    "hosSubject": "00010100",
    "hosLat": "35.81237954",
    "hosLng": "127.123614"
  },
  {
    "hosName": "미르피아 여성병원",
    "hosPhone": "063-211-1004",
    "hosAddress": "전라북도 전주시 완산구 쑥고개로 343 (효자동2가)",
    "hosSubject": "10000011",
    "hosLat": "35.80328674",
    "hosLng": "127.1027052"
  },
  {
    "hosName": "박종혁믿음병원",
    "hosPhone": "063-224-5100",
    "hosAddress": "전라북도 전주시 완산구 홍산로 250 (효자동3가)",
    "hosSubject": "10010000",
    "hosLat": "35.81601446",
    "hosLng": "127.1064527"
  },
  {
    "hosName": "벧엘요양병원",
    "hosPhone": "063-255-5321",
    "hosAddress": "전라북도 전주시 덕진구 조경단로 77 (금암동)",
    "hosSubject": "11010000",
    "hosLat": "35.8412559",
    "hosLng": "127.1386346"
  },
  {
    "hosName": "본병원",
    "hosPhone": "063-220-0300",
    "hosAddress": "전라북도 전주시 완산구 유연로 276 (중화산동2가)",
    "hosSubject": "11010000",
    "hosLat": "35.82516592",
    "hosLng": "127.115528"
  },
  {
    "hosName": "사랑요양병원",
    "hosPhone": "063-282-1600",
    "hosAddress": "전라북도 전주시 완산구 덕적골1길 69, 전주사랑병원 (평화동1가)",
    "hosSubject": "01010010",
    "hosLat": "35.79189899",
    "hosLng": "127.1413491"
  },
  {
    "hosName": "삼남재활의학과병원",
    "hosPhone": "063-222-8080",
    "hosAddress": "전라북도 전주시 완산구 영경3길 6 (중화산동2가)",
    "hosSubject": "10000000",
    "hosLat": "35.81702091",
    "hosLng": "127.1253004"
  },
  {
    "hosName": "성모요양병원",
    "hosPhone": "063-270-5003",
    "hosAddress": "전라북도 전주시 덕진구 가리내로 118 (덕진동1가)",
    "hosSubject": "10010000",
    "hosLat": "35.83587555",
    "hosLng": "127.1234416"
  },
  {
    "hosName": "수병원",
    "hosPhone": "063-251-7200",
    "hosAddress": "전라북도 전주시 완산구 서원로 63 (효자동2가)",
    "hosSubject": "10010000",
    "hosLat": "35.81400516",
    "hosLng": "127.101448"
  },
  {
    "hosName": "아중요양병원",
    "hosPhone": "063-714-8888",
    "hosAddress": "전라북도 전주시 덕진구 아중로 223 (우아동2가)",
    "hosSubject": "11010000",
    "hosLat": "35.82901262",
    "hosLng": "127.1734152"
  },
  {
    "hosName": "엠마오사랑병원",
    "hosPhone": "063-232-8881",
    "hosAddress": "전라북도 전주시 완산구 서원로 402-35 (중화산동1가)",
    "hosSubject": "11110000",
    "hosLat": "35.8128787",
    "hosLng": "127.1369579"
  },
  {
    "hosName": "연수요양병원",
    "hosPhone": "063-220-9311",
    "hosAddress": "전라북도 전주시 완산구 쑥고개옛길 118 (삼천동3가)",
    "hosSubject": "00010000",
    "hosLat": "35.79365647",
    "hosLng": "127.0767305"
  },
  {
    "hosName": "예송요양병원",
    "hosPhone": "063-250-9100",
    "hosAddress": "전라북도 전주시 덕진구 전주천서로 337 (진북동)",
    "hosSubject": "11010011",
    "hosLat": "35.82234284",
    "hosLng": "127.1319586"
  },
  {
    "hosName": "온고을재활의학과병원",
    "hosPhone": "063-710-3300",
    "hosAddress": "전라북도 전주시 완산구 완산길 100 (서완산동1가)",
    "hosSubject": "10000000",
    "hosLat": "35.81223146",
    "hosLng": "127.139817"
  },
  {
    "hosName": "온누리안과병원",
    "hosPhone": "063-277-2774",
    "hosAddress": "전라북도 전주시 완산구 백제대로 325, 온누리안과 (중화산동2가)",
    "hosSubject": "00001000",
    "hosLat": "35.82229965",
    "hosLng": "127.1223582"
  },
  {
    "hosName": "우리노인전문병원",
    "hosPhone": "063-210-3600",
    "hosAddress": "전라북도 전주시 덕진구 정여립로 978 (만성동)",
    "hosSubject": "01010000",
    "hosLat": "35.83675789",
    "hosLng": "127.0784751"
  },
  {
    "hosName": "우리들사랑요양병원",
    "hosPhone": "063-715-1300",
    "hosAddress": "전라북도 전주시 완산구 우전로 241, 우리들사랑요양병원 (효자동2가)",
    "hosSubject": "11010001",
    "hosLat": "35.81589574",
    "hosLng": "127.1013386"
  },
  {
    "hosName": "유로병원",
    "hosPhone": "063-231-6565",
    "hosAddress": "전라북도 전주시 완산구 효자로 169 (효자동3가)",
    "hosSubject": "11010010",
    "hosLat": "35.81938959",
    "hosLng": "127.1039547"
  },
  {
    "hosName": "유앤미 병원",
    "hosPhone": "063-279-1500",
    "hosAddress": "전라북도 전주시 완산구 백제대로 361 (서신동)",
    "hosSubject": "10010010",
    "hosLat": "35.82550943",
    "hosLng": "127.1222318"
  },
  {
    "hosName": "으뜸병원",
    "hosPhone": "063-220-3300",
    "hosAddress": "전라북도 전주시 완산구 모악로 4678 (평화동2가)",
    "hosSubject": "00010000",
    "hosLat": "35.78686647",
    "hosLng": "127.1305418"
  },
  {
    "hosName": "의료법인 디딤의료재단 우리요양병원",
    "hosPhone": "063-714-3838",
    "hosAddress": "전라북도 전주시 덕진구 안덕원로 291 (인후동1가)",
    "hosSubject": "01010000",
    "hosLat": "35.8377698",
    "hosLng": "127.1587682"
  },
  {
    "hosName": "의료법인 옥성의료재단 골든카운티 요양병원",
    "hosPhone": "063-221-7676",
    "hosAddress": "전라북도 전주시 완산구 중인1길 136-20 (중인동)",
    "hosSubject": "00010000",
    "hosLat": "35.76707707",
    "hosLng": "127.0887394"
  },
  {
    "hosName": "의료법인 지리산의료재단 어의당병원",
    "hosPhone": "063-900-5555",
    "hosAddress": "전라북도 전주시 완산구 전주객사1길 22 (다가동3가)",
    "hosSubject": "11010011",
    "hosLat": "35.8175417",
    "hosLng": "127.1401921"
  },
  {
    "hosName": "의료법인 효일의료재단 나눔요양병원",
    "hosPhone": "063-276-7000",
    "hosAddress": "전라북도 전주시 완산구 선너머2길 4, 전주나눔요양병원 (중화산동1가)",
    "hosSubject": "11010100",
    "hosLat": "35.81248789",
    "hosLng": "127.1294135"
  },
  {
    "hosName": "의료법인건강나라의료재단 건강나라요양병원",
    "hosPhone": "063-225-0880",
    "hosAddress": "전라북도 전주시 완산구 맏내로 114 (평화동2가)",
    "hosSubject": "10010000",
    "hosLat": "35.79056737",
    "hosLng": "127.1293411"
  },
  {
    "hosName": "의료법인계산재단문실버요양병원",
    "hosPhone": "063-282-8833",
    "hosAddress": "전라북도 전주시 완산구 충경로 91 (경원동3가)",
    "hosSubject": "10000001",
    "hosLat": "35.81970589",
    "hosLng": "127.1491124"
  },
  {
    "hosName": "의료법인영경의료재단전주병원",
    "hosPhone": "063-220-7200",
    "hosAddress": "전라북도 전주시 완산구 한두평3길 13 (중화산동2가, 전주병원)",
    "hosSubject": "11010001",
    "hosLat": "35.81516415",
    "hosLng": "127.1247632"
  },
  {
    "hosName": "의료법인영경의료재단호성전주병원",
    "hosPhone": "063-240-8800",
    "hosAddress": "전라북도 전주시 덕진구 동부대로 895 (호성동1가)",
    "hosSubject": "11010001",
    "hosLat": "35.86546346",
    "hosLng": "127.1478997"
  },
  {
    "hosName": "재단법인예수병원유지재단예수병원",
    "hosPhone": "063-230-8114",
    "hosAddress": "전라북도 전주시 완산구 서원로 365 (중화산동1가, 예수병원)",
    "hosSubject": "11111111",
    "hosLat": "35.81433164",
    "hosLng": "127.132606"
  },
  {
    "hosName": "전북대학교병원",
    "hosPhone": "063-250-1114",
    "hosAddress": "전라북도 전주시 덕진구 건지로 20 (금암동)",
    "hosSubject": "11111111",
    "hosLat": "35.84788528",
    "hosLng": "127.1411043"
  },
  {
    "hosName": "전북대학교치과병원",
    "hosPhone": "063-250-2203",
    "hosAddress": "전라북도 전주시 덕진구 건지로 20 (치과병원동,장애인구강진료센터)동 (금암동, 전북대학교병원)",
    "hosSubject": "10010100",
    "hosLat": "35.84788528",
    "hosLng": "127.1411043"
  },
  {
    "hosName": "전주 정드림요양병원",
    "hosPhone": "063-276-7122",
    "hosAddress": "전라북도 전주시 덕진구 솔내로 148 (송천동1가)",
    "hosSubject": "10110000",
    "hosLat": "35.86333293",
    "hosLng": "127.1273385"
  },
  {
    "hosName": "전주21세기병원",
    "hosPhone": "063-270-5200",
    "hosAddress": "전라북도 전주시 덕진구 송천중앙로 43 (덕진동2가)",
    "hosSubject": "11010000",
    "hosLat": "35.85093335",
    "hosLng": "127.1195564"
  },
  {
    "hosName": "전주고려병원",
    "hosPhone": "063-240-7300",
    "hosAddress": "전라북도 전주시 덕진구 안덕원로 367 (산정동)",
    "hosSubject": "11010001",
    "hosLat": "35.84009687",
    "hosLng": "127.1673162"
  },
  {
    "hosName": "전주기독병원",
    "hosPhone": "063-220-7000",
    "hosAddress": "전라북도 전주시 완산구 거마평로 185 (효자동1가,398-5)",
    "hosSubject": "11010000",
    "hosLat": "35.80871229",
    "hosLng": "127.1153751"
  },
  {
    "hosName": "전주늘사랑요양병원",
    "hosPhone": "063-224-0081",
    "hosAddress": "전라북도 전주시 완산구 용리로 60 (삼천동1가)",
    "hosSubject": "11110000",
    "hosLat": "35.79847829",
    "hosLng": "127.1162915"
  },
  {
    "hosName": "전주문병원",
    "hosPhone": "063-286-0000",
    "hosAddress": "전라북도 전주시 완산구 용머리로 106, 0동 (효자동1가,전주문병원)",
    "hosSubject": "10000000",
    "hosLat": "35.80584587",
    "hosLng": "127.1217448"
  },
  {
    "hosName": "전주샘물아동병원",
    "hosPhone": "063-230-7200",
    "hosAddress": "전라북도 전주시 완산구 세내로 285, 샘물아동병원 5층 (효자동3가)",
    "hosSubject": "10000010",
    "hosLat": "35.81554866",
    "hosLng": "127.1114225"
  },
  {
    "hosName": "전주선요양병원",
    "hosPhone": "063-278-8008",
    "hosAddress": "전라북도 전주시 완산구 노송여울2길 134 (서노송동)",
    "hosSubject": "11010010",
    "hosLat": "35.82769399",
    "hosLng": "127.1417948"
  },
  {
    "hosName": "전주시립요양병원",
    "hosPhone": "063-220-9700",
    "hosAddress": "전라북도 전주시 완산구 능안자구길 80 (삼천동3가)",
    "hosSubject": "00100000",
    "hosLat": "35.80408206",
    "hosLng": "127.0857351"
  },
  {
    "hosName": "전주신세계정형외과병원",
    "hosPhone": "063-270-1900",
    "hosAddress": "전라북도 전주시 덕진구 송천중앙로 125 (송천동1가)",
    "hosSubject": "10010000",
    "hosLat": "35.85822916",
    "hosLng": "127.1205777"
  },
  {
    "hosName": "전주우리들병원",
    "hosPhone": "063-715-3700",
    "hosAddress": "전라북도 전주시 완산구 쑥고개로 398-16 (효자동2가)",
    "hosSubject": "11010000",
    "hosLat": "35.80314477",
    "hosLng": "127.1081728"
  },
  {
    "hosName": "전주우리병원",
    "hosPhone": "063-710-3130",
    "hosAddress": "전라북도 전주시 완산구 백제대로 140, 4,5층 (효자동1가, 효자메디컬프라자)",
    "hosSubject": "01010000",
    "hosLat": "35.80543226",
    "hosLng": "127.1238722"
  },
  {
    "hosName": "전주우석병원",
    "hosPhone": "063-220-8300",
    "hosAddress": "전라북도 전주시 완산구 어은로 46 (중화산동2가)",
    "hosSubject": "11010000",
    "hosLat": "35.81741014",
    "hosLng": "127.1285633"
  },
  {
    "hosName": "전주항병원",
    "hosPhone": "063-228-6002",
    "hosAddress": "전라북도 전주시 완산구 안행8길 56-7 (삼천동1가)",
    "hosSubject": "00010000",
    "hosLat": "35.79907862",
    "hosLng": "127.1296839"
  },
  {
    "hosName": "학산요양병원",
    "hosPhone": "063-230-2900",
    "hosAddress": "전라북도 전주시 완산구 덕적골3길 55 (평화동1가)",
    "hosSubject": "11010000",
    "hosLat": "35.79459473",
    "hosLng": "127.1435072"
  },
  {
    "hosName": "한국노인요양병원",
    "hosPhone": "063-252-3723",
    "hosAddress": "전라북도 전주시 덕진구 백제대로 587 (금암동)",
    "hosSubject": "11010010",
    "hosLat": "35.84147276",
    "hosLng": "127.1335976"
  },
  {
    "hosName": "한마음요양병원",
    "hosPhone": "063-220-1111",
    "hosAddress": "전라북도 전주시 완산구 백제대로 234 (중화산동2가)",
    "hosSubject": "00010000",
    "hosLat": "35.81391869",
    "hosLng": "127.1235467"
  },
  {
    "hosName": "한빛의료소비자생활협동조합 마음편한요양병원",
    "hosPhone": "063-714-2500",
    "hosAddress": "전라북도 전주시 덕진구 쪽구름로 87-1 (반월동)",
    "hosSubject": "01010010",
    "hosLat": "35.87257595",
    "hosLng": "127.0752271"
  },
  {
    "hosName": "한빛의료소비자생활협동조합 행복나라요양병원",
    "hosPhone": "063-211-2277",
    "hosAddress": "전라북도 전주시 덕진구 번영로 462 (반월동)",
    "hosSubject": "11010000",
    "hosLat": "35.87345599",
    "hosLng": "127.0580791"
  },
  {
    "hosName": "한사랑요양병원",
    "hosPhone": "063-231-4800",
    "hosAddress": "전라북도 전주시 완산구 용머리로 251 (서완산동2가)",
    "hosSubject": "10000010",
    "hosLat": "35.80946277",
    "hosLng": "127.1369315"
  },
  {
    "hosName": "한솔요양병원",
    "hosPhone": "063-228-1122",
    "hosAddress": "전라북도 전주시 완산구 장승배기로 46 (삼천동1가)",
    "hosSubject": "10010000",
    "hosLat": "35.79204365",
    "hosLng": "127.117843"
  },
  {
    "hosName": "한양병원",
    "hosPhone": "063-220-5000",
    "hosAddress": "전라북도 전주시 완산구 장승배기로 204 (평화동1가)",
    "hosSubject": "11010010",
    "hosLat": "35.79614908",
    "hosLng": "127.1351589"
  },
  {
    "hosName": "해맑은요양병원",
    "hosPhone": "063-231-1100",
    "hosAddress": "전라북도 전주시 완산구 팔달로 202-15 (경원동3가)",
    "hosSubject": "10000000",
    "hosLat": "35.82076356",
    "hosLng": "127.1468816"
  },
  {
    "hosName": "허병원",
    "hosPhone": "063-254-5599",
    "hosAddress": "전라북도 전주시 덕진구 조경단로 103 (금암동)",
    "hosSubject": "11100000",
    "hosLat": "35.84339489",
    "hosLng": "127.1385217"
  },
  {
    "hosName": "효사랑가족요양병원",
    "hosPhone": "063-711-1111",
    "hosAddress": "전라북도 전주시 완산구 용머리로 77 (효자동1가)",
    "hosSubject": "10010010",
    "hosLat": "35.80670515",
    "hosLng": "127.1188344"
  },
  {
    "hosName": "효사랑전주요양병원",
    "hosPhone": "063-278-8288",
    "hosAddress": "전라북도 전주시 완산구 팔달로 272 (서노송동)",
    "hosSubject": "10000010",
    "hosLat": "35.82643891",
    "hosLng": "127.1441051"
  },
  {
    "hosName": "효성의료재단 새전주요양병원",
    "hosPhone": "063-213-8275",
    "hosAddress": "전라북도 전주시 덕진구 여암1길 37 (여의동)",
    "hosSubject": "00010000",
    "hosLat": "35.87001072",
    "hosLng": "127.0731777"
  }
]